,00,,,M,,M,,*43

$GPGSA,A,1,,,,,,,,,,,,,,,*1E

$GPGSV,3,1,12,27,39,223,,31,09,105,,03,10,165,40,17,25,312,*7E

$GPGSV,3,2,12,16,34,142,,23,09,195,,21,50,120,,10,71,265,*7A

$GPGSV,3,3,12,20,50,249,,28,09,275,,19,15,173,38,12,08,022,38*73

$GPRMC,073353.000,V,5230.6199,N,01312.7848,E,,,140508,,*1C

$GPGGA,073354.000,5230.6199,N,01312.7848,E,0,00,,,M,,M,,*44

$GPGSA,A,1,,,,,,,,,,,,,,,*1E

$GPGSV,3,1,12,27,39,223,,31,09,105,,03,10,165,39,17,25,312,*70

$GPGSV,3,2,12,16,34,142,,23,09,195,,21,50,120,,10,71,265,*7A

$GPGSV,3,3,12,20,50,249,,28,09,275,,19,15,173,37,12,08,022,38*7C

$GPRMC,073354.000,V,5230.6199,N,01312.7848,E,,,140508,,*1B

$GPGGA,073355.000,5230.6199,N,01312.7848,E,0,00,,,M,,M,,*45

$GPGSA,A,1,,,,,,,,,,,,,,,*1E

$GPGSV,3,1,12,27,39,223,,31,09,105,,03,10,165,38,17,25,312,*71

$GPGSV,3,2,12,16,34,142,,23,09,195,,21,50,120,,10,71,265,*7A

$GPGSV,3,3,12,20,50,249,,28,09,275,,19,15,173,38,12,08,022,38*73

$GPRMC,073355.000,V,5230.6199,N,01312.7848,E,,,250804,,*19

$GPGGA,073356.000,5230.6199,N,01312.7848,E,0,00,,,M,,M,,*46

$GPGSA,A,1,,,,,,,,,,,,,,,*1E

$GPGSV,3,1,12,27,51,127,,31,41,000,,03,38,111,39,17,19,187,*79

$GPGSV,3,2,12,16,02,105,,23,43,065,,21,52,355,,10,12,286,*76

$GPGSV,3,3,12,20,36,288,,28,28,186,,19,41,125,37,12,83,054,39*7C

$GPRMC,073356.000,V,5230.6199,N,01312.7848,E,,,250804,,*1A

$GPGGA,073357.000,5230.6199,N,01312.7848,E,0,00,,,M,,M,,*47

$GPGSA,A,1,,,,,,,,,,,,,,,*1E

$GPGSV,3,1,12,27,51,127,,31,41,000,,03,38,111,39,17,19,187,*79

$GPGSV,3,2,12,16,02,105,,23,43,065,,21,52,355,,10,12,286,*76

$GPGSV,3,3,12,20,36,288,,28,28,186,,19,41,125,38,12,83,054,38*72

$GPRMC,073357.000,V,5230.6199,N,01312.7848,E,,,250804,,*1B

$GPGGA,073358.000,5230.6199,N,01312.7848,E,0,00,,,M,,M,,*48

$GPGSA,A,1,,,,,,,,,,,,,,,*1E

$GPGSV,3,1,12,27,51,127,,31,41,000,,03,38,111,39,17,19,187,*79

$GPGSV,3,2,12,16,02,105,,23,43,065,,21,52,355,,10,12,286,*76

$GPGSV,3,3,12,20,36,288,,28,28,186,,19,41,125,37,12,83,054,38*7D

$GPRMC,073358.000,V,5230.6199,N,01312.7848,E,,,250804,,*14

$GPGGA,073359.000,5230.6199,N,01312.7848,E,0,00,,,M,,M,,*49

$GPGSA,A,1,,,,,,,,,,,,,,,*1E

$GPGSV,3,1,12,27,51,127,,31,41,000,,03,38,111,39,17,19,187,*79

$GPGSV,3,2,12,16,02,105,,23,43,065,,21,52,355,,10,12,286,*76

$GPGSV,3,3,12,20,36,288,,28,28,186,,19,41,125,37,12,83,054,39*7C

$GPRMC,073359.000,V,5230.6199,N,01312.7848,E,,,250804,,*15

$GPGGA,073400.000,5230.6199,N,01312.7848,E,0,00,,,M,,M,,*42

$GPGSA,A,1,,,,,,,,,,,,,,,*1E

$GPGSV,3,1,12,27,51,127,,31,41,000,,03,38,111,38,17,19,187,*78

$GPGSV,3,2,12,16,02,105,,23,43,065,,21,52,355,,10,12,286,*76

$GPGSV,3,3,12,20,36,288,,28,28,186,,19,41,125,36,12,83,054,38*7C

$GPRMC,073400.000,V,5230.6199,N,01312.7848,E,,,250804,,*1E

$GPGGA,073401.000,5230.6199,N,01312.7848,E,0,00,,,M,,M,,*43

$GPGSA,A,1,,,,,,,,,,,,,,,*1E

$GPGSV,3,1,12,27,51,127,,31,41,000,,03,38,111,38,17,19,187,*78

$GPGSV,3,2,12,16,02,105,,23,43,065,,21,52,355,,10,12,286,*76

$GPGSV,3,3,12,20,36,288,,28,28,186,,19,41,125,37,12,83,054,38*7D

$GPRMC,073401.000,V,5230.6199,N,01312.7848,E,,,250804,,*1F

$GPGGA,073402.054,5201.3221,N,00832.9936,E,1,03,02.7,00060.7,M,46.3,M,,*61

$GPGSA,A,2,,,03,,,,,,,,19,12,02.9,02.7,*1B

$GPGSV,3,1,12,27,51,127,,31,41,000,,03,38,111,38,17,19,187,*78

$GPGSV,3,2,12,16,02,105,,23,43,065,,21,52,355,,10,12,286,*76

$GPGSV,3,3,12,20,36,288,,28,28,186,,19,41,125,37,12,83,054,40*72

$GPRMC,073402.054,A,5201.3221,N,00832.9936,E,000.0,000.0,250804,002.3,E*69

$GPGGA,073403.054,5201.3329,N,00832.9535,E,1,03,02.7,00060.7,M,46.3,M,,*66

$GPGSA,A,2,,,03,,,,,,,,19,12,02.9,02.7,*1B

$GPGSV,3,1,12,01,80,091,,02,60,256,,03,04,358,39,27,49,120,*74

$GPGSV,3,2,12,25,47,137,,20,39,286,,23,39,062,,07,34,153,*76

$GPGSV,3,3,12,11,30,178,,13,24,231,,19,14,042,38,12,79,061,40*7D

$GPRMC,073403.054,A,5201.3329,N,00832.9535,E,000.0,000.0,250804,002.3,E*6E

$GPGGA,073404.054,5201.3318,N,00832.9653,E,1,03,02.7,00060.7,M,46.3,M,,*60

$GPGSA,A,2,,,03,,,,,,,,19,12,02.9,02.7,*1B

$GPGSV,3,1,12,01,80,091,,02,60,256,,03,04,358,39,27,49,120,*74

$GPGSV,3,2,12,25,47,137,,20,39,286,,23,39,062,,07,34,153,*76

$GPGSV,3,3,12,11,30,178,,13,24,231,,19,14,042,38,12,79,061,40*7D

$GPRMC,073404.054,A,5201.3318,N,00832.9653,E,000.0,000.0,250804,002.3,E*68

$GPGGA,073405.054,5201.3374,N,00832.9438,E,1,03,02.7,00060.7,M,46.3,M,,*64

$GPGSA,A,2,,,03,,,,,,,,19,12,02.9,02.7,*1B

$GPGSV,3,1,12,01,80,091,,02,60,256,,03,04,358,39,27,49,120,*74

$GPGSV,3,2,12,25,47,137,,20,39,286,,23,39,062,,07,34,153,*76

$GPGSV,3,3,12,11,30,178,,13,24,231,,19,14,042,37,12,79,061,40*72

$GPRMC,073405.054,A,5201.3374,N,00832.9438,E,000.0,000.0,250804,002.3,E*6C

$GPGGA,073406.054,5201.3365,N,00832.9485,E,1,03,02.7,00060.7,M,46.3,M,,*61

$GPGSA,A,2,,,03,,,,,,,,19,12,02.9,02.7,*1B

$GPGSV,3,1,12,01,80,091,,02,60,256,,03,04,358,39,27,49,120,*74

$GPGSV,3,2,12,25,47,137,,20,39,286,,23,39,062,,07,34,153,*76

$GPGSV,3,3,12,11,30,178,,13,24,231,,19,14,042,37,12,79,061,40*72

$GPRMC,073406.054,A,5201.3365,N,00832.9485,E,000.0,000.0,250804,002.3,E*69

$GPGGA,073407.054,5201.3347,N,00832.9390,E,1,03,02.7,00060.7,M,46.3,M,,*63

$GPGSA,A,2,,,03,,,,,,,,19,12,02.9,02.7,*1B

$GPGSV,3,1,12,01,80,091,,02,60,256,,03,04,358,38,27,49,120,*75

$GPGSV,3,2,12,25,47,137,,20,39,286,,23,39,062,,07,34,153,*76

$GPGSV,3,3,12,11,30,178,,13,24,231,,19,14,042,36,12,79,061,40*73

$GPRMC,073407.054,A,5201.3347,N,00832.9390,E,000.0,000.0,250804,002.3,E*6B

$GPGGA,073408.054,5201.3350,N,00832.9513,E,1,03,02.7,00060.7,M,46.3,M,,*67

$GPGSA,A,2,,,03,,,,,,,,19,12,02.9,02.7,*1B

$GPGSV,3,1,12,01,80,091,,02,60,256,,03,04,358,37,27,49,120,*7A

$GPGSV,3,2,12,25,47,137,,20,39,286,,23,39,062,,07,34,153,*76

$GPGSV,3,3,12,11,30,178,,13,24,231,,19,14,042,35,12,79,061,39*7E

$GPRMC,073408.054,A,5201.3350,N,00832.9513,E,000.0,000.0,250804,000.5,E*6B

$GPGGA,073409.054,5201.3320,N,00832.9583,E,1,03,02.7,00060.7,M,46.3,M,,*68

$GPGSA,A,2,,,03,,,,,,,,19,12,02.9,02.7,*1B

$GPGSV,3,1,12,01,80,091,,02,60,256,,03,04,358,38,27,49,120,*75

$GPGSV,3,2,12,25,47,137,,20,39,286,,23,39,062,,07,34,153,*76

$GPGSV,3,3,12,11,30,178,,13,24,231,,19,14,042,36,12,79,061,40*73

$GPRMC,073409.054,A,5201.3320,N,00832.9583,E,000.0,000.0,250804,000.5,E*64

$GPGGA,073410.054,5201.3370,N,00832.9681,E,1,03,02.7,00060.7,M,46.3,M,,*64

$GPGSA,A,2,,,03,,,,,,,,19,12,02.9,02.7,*1B

$GPGSV,3,1,12,01,80,091,,02,60,256,,03,04,358,37,27,49,120,*7A

$GPGSV,3,2,12,25,47,137,,20,39,286,,23,39,062,,07,34,153,*76

$GPGSV,3,3,12,11,30,178,,13,24,231,,19,14,042,35,12,79,061,39*7E

$GPRMC,073410.054,A,5201.3370,N,00832.9681,E,000.0,000.0,250804,000.5,E*68

$GPGGA,073411.054,5201.3318,N,00832.9634,E,1,03,02.7,00060.7,M,46.3,M,,*65

$GPGSA,A,2,,,03,,,,,,,,19,12,02.9,02.7,*1B

$GPGSV,3,1,12,01,80,091,,02,60,256,,03,04,358,37,27,49,120,*7A

$GPGSV,3,2,12,25,47,137,,20,39,286,,23,39,062,,07,34,153,*76

$GPGSV,3,3,12,11,30,178,,13,24,231,,19,14,042,35,12,79,061,40*70

$GPRMC,073411.054,A,5201.3318,N,00832.9634,E,000.0,000.0,250804,000.5,E*69

$GPGGA,073412.054,5201.3349,N,00832.9572,E,1,03,02.7,00060.7,M,46.3,M,,*63

$GPGSA,A,2,,,03,,,,,,,,19,12,02.9,02.7,*1B

$GPGSV,3,1,12,01,80,091,,02,60,256,,03,04,358,37,27,49,120,*7A

$GPGSV,3,2,12,25,47,137,,20,39,286,,23,39,062,,07,34,153,*76

$GPGSV,3,3,12,11,30,178,,13,24,231,,19,14,042,35,12,79,061,40*70

$GPRMC,073412.054,A,5201.3349,N,00832.9572,E,000.0,000.0,250804,000.5,E*6F

$GPGGA,073413.054,5201.3399,N,00832.9358,E,1,03,02.7,00060.7,M,46.3,M,,*61

$GPGSA,A,2,,,03,,,,,,,,19,12,02.9,02.7,*1B

$GPGSV,3,1,12,01,80,091,,02,60,256,,03,04,358,38,27,49,120,*75

$GPGSV,3,2,12,25,47,137,,20,39,286,,23,39,062,,07,34,153,*76

$GPGSV,3,3,12,11,30,178,,13,24,231,,19,14,042,36,12,79,061,40*73

$GPRMC,073413.054,A,5201.3399,N,00832.9358,E,000.0,000.0,250804,000.5,E*6D

$GPGGA,073414.054,5201.3404,N,00832.9375,E,1,03,02.7,00060.7,M,46.3,M,,*6A

$GPGSA,A,2,,,03,,,,,,,,19,12,02.9,02.7,*1B

$GPGSV,3,1,12,01,80,091,,02,60,256,,03,04,358,38,27,49,120,*75

$GPGSV,3,2,12,25,47,137,,20,39,286,,23,39,062,,07,34,153,*76

$GPGSV,3,3,12,11,30,178,,13,24,231,,19,14,042,37,12,79,061,40*72

$GPRMC,073414.054,A,5201.3404,N,00832.9375,E,000.0,000.0,250804,000.5,E*66

$GPGGA,073415.054,5201.3398,N,00832.9390,E,1,03,02.7,00060.7,M,46.3,M,,*62

$GPGSA,A,2,,,03,,,,,,,,19,12,02.9,02.7,*1B

$GPGSV,3,1,12,01,80,091,,02,60,256,,03,04,358,38,27,49,120,*75

$GPGSV,3,2,12,25,47,137,,20,39,286,,23,39,062,,07,34,153,*76

$GPGSV,3,3,12,11,30,178,,13,24,231,,19,14,042,36,12,79,061,40*73

$GPRMC,073415.054,A,5201.3398,N,00832.9390,E,000.0,000.0,250804,000.5,E*6E

$GPGGA,073416.054,5201.3394,N,00832.9395,E,1,03,02.7,00060.7,M,46.3,M,,*68

$GPGSA,A,2,,,03,,,,,,,,19,12,02.9,02.7,*1B

$GPGSV,3,1,12,01,80,091,,02,60,256,,03,04,358,38,27,49,120,*75

$GPGSV,3,2,12,25,47,137,,20,39,286,,23,39,062,,07,34,153,*76

$GPGSV,3,3,12,11,30,178,,13,24,231,,19,14,042,36,12,79,061,40*73

$GPRMC,073416.054,A,5201.3394,N,00832.9395,E,000.0,000.0,250804,000.5,E*64

$GPGGA,073417.054,5201.3392,N,00832.9393,E,1,02,02.7,00060.7,M,46.3,M,,*68

$GPGSA,A,2,,,,,,,,,,,19,12,02.9,02.7,*18

$GPGSV,3,1,12,01,80,091,,02,60,256,,03,04,358,38,27,49,120,*75

$GPGSV,3,2,12,25,47,137,,20,39,286,,23,39,062,,07,34,153,*76

$GPGSV,3,3,12,11,30,178,,13,24,231,,19,14,042,36,12,79,061,39*7D

$GPRMC,073417.054,A,5201.3392,N,00832.9393,E,000.0,000.0,250804,000.5,E*65

$GPGGA,073418.054,5201.3394,N,00832.9395,E,1,02,02.7,00060.7,M,46.3,M,,*67

$GPGSA,A,2,,,,,,,,,,,19,12,02.9,02.7,*18

$GPGSV,3,1,12,01,80,091,,02,60,256,,03,04,358,38,27,49,120,*75

$GPGSV,3,2,12,25,47,137,,20,39,286,,23,39,062,,07,34,153,*76

$GPGSV,3,3,12,11,30,178,,13,24,231,,19,14,042,36,12,79,061,39*7D

$GPRMC,073418.054,A,5201.3394,N,00832.9395,E,000.0,000.0,250804,000.5,E*6A

$GPGGA,073419.054,5201.3395,N,00832.9397,E,1,02,02.7,00060.7,M,46.3,M,,*65

$GPGSA,A,2,,,,,,,,,,,19,12,02.9,02.7,*18

$GPGSV,3,1,12,01,80,091,,02,60,256,,03,04,358,38,27,49,120,*75

$GPGSV,3,2,12,25,47,137,,20,39,286,,23,39,062,,07,34,153,*76

$GPGSV,3,3,12,11,30,178,,13,24,231,,19,14,042,36,12,79,061,39*7D

$GPRMC,073419.054,A,5201.3395,N,00832.9397,E,000.0,000.0,250804,000.5,E*68

$GPGGA,073420.054,5201.3395,N,00832.9397,E,1,02,02.7,00060.7,M,46.3,M,,*6F

$GPGSA,A,2,,,,,,,,,,,19,12,02.9,02.7,*18

$GPGSV,3,1,12,01,80,091,,02,60,256,,03,04,358,38,27,49,120,*75

$GPGSV,3,2,12,25,47,137,,20,39,286,,23,39,062,,07,34,153,*76

$GPGSV,3,3,12,11,30,178,,13,24,231,,19,14,042,36,12,79,061,38*7C

$GPRMC,073420.054,A,5201.3395,N,00832.9397,E,000.0,000.0,250804,000.5,E*62

$GPGGA,073421.054,5201.3395,N,00832.9396,E,1,02,02.7,00060.7,M,46.3,M,,*6F

$GPGSA,A,2,,,,,,,,,,,19,12,02.9,02.7,*18

$GPGSV,3,1,12,01,80,091,,02,60,256,,03,04,358,39,27,49,120,*74

$GPGSV,3,2,12,25,47,137,,20,39,286,,23,39,062,,07,34,153,*76

$GPGSV,3,3,12,11,30,178,,13,24,231,,19,14,042,36,12,79,061,39*7D

$GPRMC,073421.054,A,5201.3395,N,00832.9396,E,000.0,000.0,250804,000.5,E*62

$GPGGA,073422.054,5201.3394,N,00832.9396,E,1,02,02.7,00060.7,M,46.3,M,,*6D

$GPGSA,A,2,,,,,,,,,,,19,12,02.9,02.7,*18

$GPGSV,3,1,12,01,80,091,,02,60,256,,03,04,358,40,27,49,120,*7A

$GPGSV,3,2,12,25,47,137,,20,39,286,,23,39,062,,07,34,153,*76

$GPGSV,3,3,12,11,30,178,,13,24,231,,19,14,042,38,12,79,061,39*73

$GPRMC,073422.054,A,5201.3394,N,00832.9396,E,000.0,000.0,250804,000.5,E*60

$GPGGA,073423.054,5201.3395,N,00832.9396,E,1,02,02.7,00060.7,M,46.3,M,,*6D

$GPGSA,A,2,,,,,,,,,,,19,12,02.9,02.7,*18

$GPGSV,3,1,12,01,80,091,,02,60,256,,03,04,358,39,27,49,120,*74

$GPGSV,3,2,12,25,47,137,,20,39,286,,23,39,062,,07,34,153,*76

$GPGSV,3,3,12,11,30,178,,13,24,231,,19,14,042,37,12,79,061,39*7C

$GPRMC,073423.054,A,5201.3395,N,00832.9396,E,000.0,000.0,250804,000.5,E*60

$GPGGA,073424.054,5201.3394,N,00832.9395,E,1,02,02.7,00060.7,M,46.3,M,,*68

$GPGSA,A,2,,,,,,,,,,,19,12,02.9,02.7,*18

$GPGSV,3,1,12,01,80,091,,02,60,256,,03,04,358,38,27,49,120,*75

$GPGSV,3,2,12,25,47,137,,20,39,286,,23,39,062,,07,34,153,*76

$GPGSV,3,3,12,11,30,178,,13,24,231,,19,14,042,37,12,79,061,38*7D

$GPRMC,073424.054,A,5201.3394,N,00832.9395,E,000.0,000.0,250804,000.5,E*65

$GPGGA,073425.054,5201.3394,N,00832.9395,E,1,02,02.7,00060.7,M,46.3,M,,*69

$GPGSA,A,2,,,,,,,,,,,19,12,02.9,02.7,*18

$GPGSV,3,1,12,01,80,091,,02,60,256,,03,04,358,38,27,49,120,*75

$GPGSV,3,2,12,25,47,137,,20,39,286,,23,39,062,,07,34,153,*76

$GPGSV,3,3,12,11,30,178,,13,24,231,,19,14,042,38,12,79,061,38*72

$GPRMC,073425.054,A,5201.3394,N,00832.9395,E,000.0,000.0,250804,000.5,E*64

$GPGGA,073426.054,5201.3394,N,00832.9395,E,1,02,02.7,00060.7,M,46.3,M,,*6A

$GPGSA,A,2,,,,,,,,,,,19,12,02.9,02.7,*18

$GPGSV,3,1,12,01,80,091,,02,60,256,,03,04,358,39,27,49,120,*74

$GPGSV,3,2,12,25,47,137,,20,39,286,,23,39,062,,07,34,153,*76

$GPGSV,3,3,12,11,30,178,,13,24,231,,19,14,042,37,12,79,061,38*7D

$GPRMC,073426.054,A,5201.3394,N,00832.9395,E,000.0,000.0,250804,000.5,E*67

$GPGGA,073427.054,5201.3392,N,00832.9393,E,1,02,02.7,00060.7,M,46.3,M,,*6B

$GPGSA,A,2,,,,,,,,,,,19,12,02.9,02.7,*18

$GPGSV,3,1,12,01,80,091,,02,60,256,,03,04,358,39,27,49,120,*74

$GPGSV,3,2,12,25,47,137,,20,39,286,,23,39,062,,07,34,153,*76

$GPGSV,3,3,12,11,30,178,,13,24,231,,19,14,042,38,12,79,061,38*72

$GPRMC,073427.054,A,5201.3392,N,00832.9393,E,000.0,000.0,250804,000.5,E*66

$GPGGA,073428.054,5201.3390,N,00832.9390,E,1,02,02.7,00060.7,M,46.3,M,,*65

$GPGSA,A,2,,,,,,,,,,,19,12,02.9,02.7,*18

$GPGSV,3,1,12,01,80,091,,02,60,256,,03,04,358,40,27,49,120,*7A

$GPGSV,3,2,12,25,47,137,,20,39,286,,23,39,062,,07,34,153,*76

$GPGSV,3,3,12,11,30,178,,13,24,231,,19,14,042,38,12,79,061,38*72

$GPRMC,073428.054,A,5201.3390,N,00832.9390,E,000.0,000.0,250804,000.5,E*68

$GPGGA,073429.054,5201.3388,N,00832.9388,E,1,02,02.7,00060.7,M,46.3,M,,*64

$GPGSA,A,2,,,,,,,,,,,19,12,02.9,02.7,*18

$GPGSV,3,1,12,01,80,091,,02,60,256,,03,04,358,39,27,49,120,*74

$GPGSV,3,2,12,25,47,137,,20,39,286,,23,39,062,,07,34,153,*76

$GPGSV,3,3,12,11,30,178,,13,24,231,,19,14,042,37,12,79,061,39*7C

$GPRMC,073429.054,A,5201.3388,N,00832.9388,E,000.0,000.0,250804,000.5,E*69

$GPGGA,073430.054,5201.3387,N,00832.9386,E,1,02,02.7,00060.7,M,46.3,M,,*6D

$GPGSA,A,2,,,,,,,,,,,19,12,02.9,02.7,*18

$GPGSV,3,1,12,01,80,091,,02,60,256,,03,04,358,39,27,49,120,*74

$GPGSV,3,2,12,25,47,137,,20,39,286,,23,39,062,,07,34,153,*76

$GPGSV,3,3,12,11,30,178,,13,24,231,,19,14,042,38,12,79,061,38*72

$GPRMC,073430.054,A,5201.3387,N,00832.9386,E,000.0,000.0,250804,000.5,E*60

$GPGGA,073431.054,5201.3386,N,00832.9384,E,1,02,02.7,00060.7,M,46.3,M,,*6F

$GPGSA,A,2,,,,,,,,,,,19,12,02.9,02.7,*18

$GPGSV,3,1,12,01,80,091,,02,60,256,,03,04,358,38,27,49,120,*75

$GPGSV,3,2,12,25,47,137,,20,39,286,,23,39,062,,07,34,153,*76

$GPGSV,3,3,12,11,30,178,,13,24,231,,19,14,042,38,12,79,061,38*72

$GPRMC,073431.054,A,5201.3386,N,00832.9384,E,000.0,000.0,250804,000.5,E*62

$GPGGA,073432.054,5201.3386,N,00832.9384,E,1,02,02.7,00060.7,M,46.3,M,,*6C

$GPGSA,A,2,,,,,,,,,,,19,12,02.9,02.7,*18

$GPGSV,3,1,12,01,80,091,,02,60,256,,03,04,358,39,27,49,120,*74

$GPGSV,3,2,12,25,47,137,,20,39,286,,23,39,062,,07,34,153,*76

$GPGSV,3,3,12,11,30,178,,13,24,231,,19,14,042,38,12,79,061,39*73

$GPRMC,073432.054,A,5201.3386,N,00832.9384,E,000.0,000.0,250804,000.5,E*61

$GPGGA,073433.054,5201.3385,N,00832.9383,E,1,02,02.7,00060.7,M,46.3,M,,*69

$GPGSA,A,2,,,,,,,,,,,19,12,02.9,02.7,*18

$GPGSV,3,1,12,01,80,091,,02,60,256,,03,04,358,39,27,49,120,*74

$GPGSV,3,2,12,25,47,137,,20,39,286,,23,39,062,,07,34,153,*76

$GPGSV,3,3,12,11,30,178,,13,24,231,,19,14,042,39,12,79,061,39*72

$GPRMC,073433.054,A,5201.3385,N,00832.9383,E,000.0,000.0,250804,000.5,E*64

$GPGGA,073434.054,5201.3384,N,00832.9382,E,1,02,02.7,00060.7,M,46.3,M,,*6E

$GPGSA,A,2,,,,,,,,,,,19,12,02.9,02.7,*18

$GPGSV,3,1,12,01,80,091,,02,60,256,,03,04,358,40,27,49,120,*7A

$GPGSV,3,2,12,25,47,137,,20,39,286,,23,39,062,,07,34,153,*76

$GPGSV,3,3,12,11,30,178,,13,24,231,,19,14,042,40,12,79,061,40*72

$GPRMC,073434.054,A,5201.3384,N,00832.9382,E,000.0,000.0,250804,000.5,E*63

$GPGGA,073435.054,5201.3383,N,00832.9381,E,1,02,02.7,00060.7,M,46.3,M,,*6B

$GPGSA,A,2,,,,,,,,,,,19,12,02.9,02.7,*18

$GPGSV,3,1,12,01,80,091,,02,60,256,,03,04,358,40,27,49,120,*7A

$GPGSV,3,2,12,25,47,137,,20,39,286,,23,39,062,,07,34,153,*76

$GPGSV,3,3,12,11,30,178,,13,24,231,,19,14,042,39,12,79,061,39*72

$GPRMC,073435.054,A,5201.3383,N,00832.9381,E,000.0,000.0,250804,000.5,E*66

$GPGGA,073436.054,5201.3382,N,00832.9380,E,1,02,02.7,00060.7,M,46.3,M,,*68

$GPGSA,A,2,,,,,,,,,,,19,12,02.9,02.7,*18

$GPGSV,3,1,12,01,80,091,,02,60,256,,03,04,358,39,27,49,120,*74

$GPGSV,3,2,12,25,47,137,,20,39,286,,23,39,062,,07,34,153,*76

$GPGSV,3,3,12,11,30,178,,13,24,231,,19,14,042,38,12,79,061,39*73

$GPRMC,073436.054,A,5201.3382,N,00832.9380,E,000.0,000.0,250804,000.5,E*65

$GPGGA,073437.054,5201.3382,N,00832.9380,E,1,02,02.7,00060.7,M,46.3,M,,*69

$GPGSA,A,2,,,,,,,,,,,19,12,02.9,02.7,*18

$GPGSV,3,1,12,01,80,091,,02,60,256,,03,04,358,39,27,49,120,*74

$GPGSV,3,2,12,25,47,137,,20,39,286,,23,39,062,,07,35,152,*76

$GPGSV,3,3,12,11,30,178,,13,24,231,,19,14,042,39,12,79,061,39*72

$GPRMC,073437.054,A,5201.3382,N,00832.9380,E,000.0,000.0,250804,000.5,E*64

$GPGGA,073438.054,5201.3381,N,00832.9379,E,1,02,02.7,00060.7,M,46.3,M,,*63

$GPGSA,A,2,,,,,,,,,,,19,12,02.9,02.7,*18

$GPGSV,3,1,12,01,80,091,,02,60,256,,03,04,358,39,27,49,120,*74

$GPGSV,3,2,12,25,47,137,,20,39,286,,23,39,062,,07,35,152,*76

$GPGSV,3,3,12,11,30,178,,13,24,231,,19,14,042,39,12,79,061,39*72

$GPRMC,073438.054,A,5201.3381,N,00832.9379,E,000.0,000.0,250804,000.5,E*6E

$GPGGA,073439.054,5201.3380,N,00832.9378,E,1,02,02.7,00060.7,M,46.3,M,,*62

$GPGSA,A,2,,,,,,,,,,,19,12,02.9,02.7,*18

$GPGSV,3,1,12,01,80,091,,02,60,256,,03,04,358,38,27,49,120,*75

$GPGSV,3,2,12,25,47,137,,20,39,286,,23,39,062,,07,35,152,*76

$GPGSV,3,3,12,11,30,178,,13,24,231,,19,14,042,38,12,79,061,39*73

$GPRMC,073439.054,A,5201.3380,N,00832.9378,E,000.0,000.0,250804,000.5,E*6F

$GPGGA,073440.054,5201.3380,N,00832.9377,E,1,02,02.7,00060.7,M,46.3,M,,*63

$GPGSA,A,2,,,,,,,,,,,19,12,02.9,02.7,*18

$GPGSV,3,1,12,01,80,091,,02,60,256,,03,04,358,40,27,49,120,*7A

$GPGSV,3,2,12,25,47,137,,20,39,286,,23,39,062,,07,35,152,*76

$GPGSV,3,3,12,11,30,178,,13,24,231,,19,14,042,39,12,79,061,40*7C

$GPRMC,073440.054,A,5201.3380,N,00832.9377,E,000.0,000.0,250804,000.5,E*6E

$GPGGA,073441.054,5201.3380,N,00832.9377,E,1,02,02.7,00060.7,M,46.3,M,,*62

$GPGSA,A,2,,,,,,,,,,,19,12,02.9,02.7,*18

$GPGSV,3,1,12,01,80,091,,02,60,256,,03,04,358,40,27,49,120,*7A

$GPGSV,3,2,12,25,47,137,,20,39,286,,23,39,062,,07,35,152,*76

$GPGSV,3,3,12,11,29,178,,13,24,231,,19,14,042,38,12,79,061,40*75

$GPRMC,073441.054,A,5201.3380,N,00832.9377,E,000.0,000.0,250804,000.5,E*6F

$GPGGA,073442.054,5201.3380,N,00832.9377,E,1,02,02.7,00060.7,M,46.3,M,,*61

$GPGSA,A,2,,,,,,,,,,,19,12,02.9,02.7,*18

$GPGSV,3,1,12,01,80,091,,02,60,256,,03,04,358,39,27,49,120,*74

$GPGSV,3,2,12,25,47,137,,20,39,286,,23,39,062,,07,35,152,*76

$GPGSV,3,3,12,11,29,178,,13,24,231,,19,14,042,38,12,79,061,40*75

$GPRMC,073442.054,A,5201.3380,N,00832.9377,E,000.0,000.0,250804,000.5,E*6C

$GPGGA,073443.054,5201.3379,N,00832.9376,E,1,02,02.7,00060.7,M,46.3,M,,*67

$GPGSA,A,2,,,,,,,,,,,19,12,02.9,02.7,*18

$GPGSV,3,1,12,01,80,091,,02,60,256,,03,04,358,39,27,49,120,*74

$GPGSV,3,2,12,25,47,137,,20,39,286,,23,39,062,,07,35,152,*76

$GPGSV,3,3,12,11,29,178,,13,25,232,,19,14,042,39,12,79,061,41*77

$GPRMC,073443.054,A,5201.3379,N,00832.9376,E,000.0,000.0,250804,000.5,E*6A

$GPGGA,073444.054,5201.3379,N,00832.9376,E,1,02,02.7,00060.7,M,46.3,M,,*60

$GPGSA,A,2,,,,,,,,,,,19,12,02.9,02.7,*18

$GPGSV,3,1,12,01,80,091,,02,60,256,,03,04,358,40,27,49,120,*7A

$GPGSV,3,2,12,25,47,137,,20,39,286,,23,39,062,,07,35,152,*76

$GPGSV,3,3,12,11,29,178,,13,25,232,,19,14,042,38,12,79,061,40*77

$GPRMC,073444.054,A,5201.3379,N,00832.9376,E,000.0,000.0,250804,000.5,E*6D

$GPGGA,073445.054,5201.3379,N,00832.9376,E,1,02,02.7,00060.7,M,46.3,M,,*61

$GPGSA,A,2,,,,,,,,,,,19,12,02.9,02.7,*18

$GPGSV,3,1,12,01,80,091,,02,60,256,,03,04,358,41,27,49,120,*7B

$GPGSV,3,2,12,25,47,137,,20,39,286,,23,39,062,,07,35,152,*76

$GPGSV,3,3,12,11,29,178,,13,25,232,,19,14,042,39,12,79,061,41*77

$GPRMC,073445.054,A,5201.3379,N,00832.9376,E,000.0,000.0,250804,000.5,E*6C

$GPGGA,073446.054,5201.3380,N,00832.9377,E,1,02,02.7,00060.7,M,46.3,M,,*65

$GPGSA,A,2,,,,,,,,,,,19,12,02.9,02.7,*18

$GPGSV,3,1,12,01,80,091,,02,60,256,,03,04,358,41,27,49,120,*7B

$GPGSV,3,2,12,25,47,137,,20,39,286,,23,39,062,,07,35,152,*76

$GPGSV,3,3,12,11,29,178,,13,25,232,,19,14,042,40,12,79,061,41*79

$GPRMC,073446.054,A,5201.3380,N,00832.9377,E,000.0,000.0,250804,000.5,E*68

$GPGGA,073447.054,5201.3380,N,00832.9376,E,1,02,02.7,00060.7,M,46.3,M,,*65

$GPGSA,A,2,,,,,,,,,,,,,02.9,02.7,*13

$GPGSV,3,1,12,01,80,091,,02,60,256,,03,04,358,41,27,49,120,*7B

$GPGSV,3,2,12,25,47,137,,20,39,286,,23,39,062,,07,35,152,*76

$GPGSV,3,3,12,11,29,178,,13,25,232,,19,14,042,39,12,79,061,41*77

$GPRMC,073447.054,A,5201.3380,N,00832.9376,E,000.0,000.0,250804,000.5,E*68

$GPGGA,073448.054,5201.3380,N,00832.9376,E,1,02,02.7,00060.7,M,46.3,M,,*6A

$GPGSA,A,2,,,,,,,,,,,,,02.9,02.7,*13

$GPGSV,3,1,12,01,80,091,,02,60,256,,03,04,358,40,27,49,120,*7A

$GPGSV,3,2,12,25,47,137,,20,39,286,,23,39,062,,07,35,152,*76

$GPGSV,3,3,12,11,29,178,,13,25,232,,19,13,042,38,12,79,061,40*70

$GPRMC,073448.054,A,5201.3380,N,00832.9376,E,000.0,000.0,250804,000.5,E*67

$GPGGA,073449.054,5201.3380,N,00832.9376,E,1,02,02.7,00060.7,M,46.3,M,,*6B

$GPGSA,A,2,,,,,,,,,,,,,02.9,02.7,*13

$GPGSV,3,1,12,01,80,091,,02,60,256,,03,04,358,39,27,49,120,*74

$GPGSV,3,2,12,25,47,137,,20,39,286,,23,39,062,,07,35,152,*76

$GPGSV,3,3,12,11,29,178,,13,25,232,,19,13,042,38,12,79,061,39*7E

$GPRMC,073449.054,A,5201.3380,N,00832.9376,E,000.0,000.0,250804,000.5,E*66

$GPGGA,073450.054,5201.3379,N,00832.9376,E,1,02,02.7,00060.7,M,46.3,M,,*65

$GPGSA,A,2,,,,,,,,,,,,,02.9,02.7,*13

$GPGSV,3,1,12,01,80,091,,02,60,256,,03,04,358,39,27,49,120,*74

$GPGSV,3,2,12,25,47,137,,20,39,286,,23,39,062,,07,35,152,*76

$GPGSV,3,3,12,11,29,178,,13,25,232,,19,13,042,38,12,79,061,38*7F

$GPRMC,073450.054,A,5201.3379,N,00832.9376,E,000.0,000.0,250804,000.5,E*68

$GPGGA,073451.054,5201.3379,N,00832.9376,E,1,02,02.7,00060.7,M,46.3,M,,*64

$GPGSA,A,2,,,,,,,,,,,,,02.9,02.7,*13

$GPGSV,3,1,12,01,80,091,,02,60,256,,03,04,358,39,27,49,120,*74

$GPGSV,3,2,12,25,47,137,,20,39,286,,23,39,062,,07,35,152,*76

$GPGSV,3,3,12,11,29,178,,13,25,232,,19,13,042,37,12,79,061,38*70

$GPRMC,073451.054,A,5201.3379,N,00832.9376,E,000.0,000.0,250804,000.5,E*69

$GPGGA,073452.054,5201.3379,N,00832.9376,E,1,02,02.7,00060.7,M,46.3,M,,*67

$GPGSA,A,2,,,,,,,,,,,,,02.9,02.7,*13

$GPGSV,3,1,12,01,80,091,,02,60,256,,03,04,358,40,27,49,120,*7A

$GPGSV,3,2,12,25,47,137,,20,39,286,,23,39,062,,07,35,152,*76

$GPGSV,3,3,12,11,29,178,,13,25,232,,19,13,042,38,12,79,061,39*7E

$GPRMC,073452.054,A,5201.3379,N,00832.9376,E,000.0,000.0,250804,000.5,E*6A

$GPGGA,073453.054,5201.3379,N,00832.9376,E,1,02,02.7,00060.7,M,46.3,M,,*66

$GPGSA,A,2,,,,,,,,,,,,,02.9,02.7,*13

$GPGSV,3,1,12,01,80,091,,02,60,256,,03,04,358,39,27,49,120,*74

$GPGSV,3,2,12,25,47,137,,20,39,286,,23,39,062,,07,35,152,*76

$GPGSV,3,3,12,11,29,178,,13,25,232,,19,13,042,38,12,79,061,39*7E

$GPRMC,073453.054,A,5201.3379,N,00832.9376,E,000.0,000.0,250804,000.5,E*6B

$GPGGA,073454.054,5201.3379,N,00832.9376,E,1,02,02.7,00060.7,M,46.3,M,,*61

$GPGSA,A,2,,,,,,,,,,,,,02.9,02.7,*13

$GPGSV,3,1,12,01,80,091,,02,60,256,,03,04,358,39,27,49,120,*74

$GPGSV,3,2,12,25,47,137,,20,39,286,,23,39,062,,07,35,152,*76

$GPGSV,3,3,12,11,29,178,,13,25,232,,19,13,042,38,12,79,061,39*7E

$GPRMC,073454.054,A,5201.3379,N,00832.9376,E,000.0,000.0,250804,000.5,E*6C

$GPGGA,073455.054,5201.3379,N,00832.9376,E,1,02,02.7,00060.7,M,46.3,M,,*60

$GPGSA,A,2,,,,,,,,,,,,,02.9,02.7,*13

$GPGSV,3,1,12,01,80,091,,02,60,256,,03,04,358,39,27,49,120,*74

$GPGSV,3,2,12,25,47,137,,20,39,286,,23,39,062,,07,35,152,*76

$GPGSV,3,3,12,11,29,178,,13,25,232,,19,13,042,38,12,79,061,39*7E

$GPRMC,073455.054,A,5201.3379,N,00832.9376,E,000.0,000.0,250804,000.5,E*6D

$GPGGA,073456.054,5201.3379,N,00832.9376,E,1,02,02.7,00060.7,M,46.3,M,,*63

$GPGSA,A,2,,,,,,,,,,,,,02.9,02.7,*13

$GPGSV,3,1,12,01,80,091,,02,60,256,,03,04,358,39,27,49,120,*74

$GPGSV,3,2,12,25,47,137,,20,39,286,,23,39,062,,07,35,152,*76

$GPGSV,3,3,12,11,29,178,,13,25,232,,19,13,042,37,12,79,061,40*7F

$GPRMC,073456.054,A,5201.3379,N,00832.9376,E,000.0,000.0,250804,000.5,E*6E

$GPGGA,073457.054,5201.3379,N,00832.9376,E,1,02,02.7,00060.7,M,46.3,M,,*62

$GPGSA,A,2,,,,,,,,,,,,,02.9,02.7,*13

$GPGSV,3,1,12,01,80,091,,02,60,256,,03,04,358,39,27,49,119,*7E

$GPGSV,3,2,12,25,47,137,,20,39,286,,23,39,062,,07,35,152,*76

$GPGSV,3,3,12,11,29,178,,13,25,232,,19,13,042,38,12,79,061,39*7E

$GPRMC,073457.054,A,5201.3379,N,00832.9376,E,000.0,000.0,250804,000.5,E*6F

$GPGGA,073458.054,5201.3379,N,00832.9376,E,1,02,02.7,00060.7,M,46.3,M,,*6D

$GPGSA,A,2,,,,,,,,,,,,,02.9,02.7,*13

$GPGSV,3,1,12,01,80,091,,02,60,256,,03,04,358,39,27,49,119,*7E

$GPGSV,3,2,12,25,47,137,,20,39,286,,23,39,062,,07,35,152,*76

$GPGSV,3,3,12,11,29,178,,13,25,232,,19,13,042,38,12,79,061,39*7E

$GPRMC,073458.054,A,5201.3379,N,00832.9376,E,000.0,000.0,250804,000.5,E*60

$GPGGA,073459.054,5201.3379,N,00832.9376,E,1,02,02.7,00060.7,M,46.3,M,,*6C

$GPGSA,A,2,,,,,,,,,,,,,02.9,02.7,*13

$GPGSV,3,1,12,01,80,091,,02,60,256,,03,04,358,39,27,49,119,*7E

$GPGSV,3,2,12,25,47,137,,20,39,286,,23,39,062,,07,35,152,*76

$GPGSV,3,3,12,11,29,178,,13,25,232,,19,13,042,37,12,79,061,40*7F

$GPRMC,073459.054,A,5201.3379,N,00832.9376,E,000.0,000.0,250804,000.5,E*61

$GPGGA,073500.054,5201.3379,N,00832.9376,E,1,02,02.7,00060.7,M,46.3,M,,*61

$GPGSA,A,2,,,,,,,,,,,,,02.9,02.7,*13

$GPGSV,3,1,12,01,80,091,,02,60,256,,03,04,358,38,27,49,119,*7F

$GPGSV,3,2,12,25,47,137,,20,39,286,,23,39,062,,07,35,152,*76

$GPGSV,3,3,12,11,29,178,,13,25,232,,19,13,042,37,12,79,061,39*71

$GPRMC,073500.054,A,5201.3379,N,00832.9376,E,000.0,000.0,250804,000.5,E*6C

$GPGGA,073501.054,5201.3379,N,00832.9376,E,1,02,02.7,00060.7,M,46.3,M,,*60

$GPGSA,A,2,,,,,,,,,,,,,02.9,02.7,*13

$GPGSV,3,1,12,01,80,091,,02,60,256,,03,04,358,38,27,49,119,*7F

$GPGSV,3,2,12,25,47,137,,20,39,286,,23,39,062,,07,35,152,*76

$GPGSV,3,3,12,11,29,178,,13,25,232,,19,13,042,37,12,79,061,39*71

$GPRMC,073501.054,A,5201.3379,N,00832.9376,E,000.0,000.0,250804,000.5,E*6D

